name,lat,lon,population
Maroua,10.603308,14.328162,3119000
Douala,4.042939,9.706202,2000000
Yaoundé,3.868987,11.521334,1817524
Bamenda,5.961412,10.151651,1735000
Garoua,9.30707,13.393453,1703000
Buea,4.15679,9.231592,1325000
Ngaoundéré,7.321154,13.587821,903000
Ebolowa,2.919384,11.151663,641000
Dschang,5.446992,10.053309,200000
Kaélé,10.109574,14.446062,141431
Bibemi,9.312913,13.870952,133191
Kumbo,6.210889,10.686779,120000
Foumban,5.728226,10.89716,120000
Banyo,6.748547,11.804578,120000
Edéa,3.799013,10.126557,120000
Kribi,2.94341,9.912699,120000
Nkongsamba,4.952511,9.939167,120000
Kumba,4.637837,9.440945,120000
Sangmélima,2.936176,11.975646,120000
Mfou,3.715882,11.643211,120000
Bafoussam,5.475884,10.421785,120000
Tcholliré,8.40333,14.167524,120000
Poli,8.476435,13.242392,120000
Tignère,7.373248,12.652921,120000
Akonolinga,3.77339,12.244917,120000
Mbalmayo,3.515197,11.503114,120000
Lomié,3.15982,13.618294,120000
Yokadouma,3.515279,15.051033,120000
Monatélé,4.258913,11.204417,120000
Ntui,4.445931,11.628121,120000
Éséka,3.641307,10.774176,120000
Abong-Mbang,3.988409,13.171724,120000
Moloundou,2.043603,15.216573,120000
Yabassi,4.460432,9.970906,120000
Meiganga,6.517212,14.294788,120000
Guider,9.930253,13.946755,120000
Yagoua,10.34443,15.226587,120000
Air men city,3.795844,11.499773,120000
Tibati,6.465858,12.625125,120000
Mbouda,5.627374,10.254744,120000
Bamenda,9.445199,13.54718,120000
Bafang,5.158664,10.179748,120000
Bertoua,4.577616,13.684379,120000
Bafia,4.739933,11.220593,120000
Ambam,2.385071,11.266919,120000
Limbé,4.010289,9.207058,118210
Kousséri,12.083118,15.019126,101246
Bamendjou,5.389403,10.331205,70000
Batouri,4.435635,14.364746,67000
Bangangté,5.139613,10.523541,63595
Goulfey,12.381567,14.90233,58117
Mora,11.048445,14.134284,53667
Logone-Birni,11.780627,15.103912,52589
Mokolo,10.74103,13.798742,40168
Pitoa,9.386126,13.501115,28636
Lagdo,9.05748,13.665359,28239
Kalfou,10.28522,14.929658,26223
Zina,11.263815,14.96483,25572
Nkambe,6.578383,10.706239,22000
Bali,5.887897,10.011026,22000
Wum,6.387798,10.076639,22000
Malentouen,5.712719,11.117803,22000
Bana,5.148761,10.275812,22000
Mandjou,4.593884,13.739505,22000
Mbandjock,4.446195,11.902462,22000
Tonga,4.969409,10.699308,22000
Mbengwi,6.003224,10.01384,22000
Loum,4.720054,9.727499,22000
Tombel,4.750007,9.669199,22000
Penja,4.640799,9.682914,22000
Mogodé,10.608123,13.570404,22000
Gazawa,10.536546,14.140218,22000
Roumsiki,10.512309,13.585326,22000
Boula-Ibi,9.55774,13.763022,22000
Gouna,8.524341,13.56405,22000
Bindiba,6.507851,14.086067,22000
Pouss,10.846776,15.056651,22000
Waza,11.400455,14.568122,22000
Fotokol,12.376772,14.224692,22000
Gari-Gombo,3.933695,15.110376,22000
Yola,4.02483,15.021958,22000
Ndélélé,4.041919,14.928217,22000
Campo,2.377959,9.829926,22000
Bipindi,3.077905,10.411281,22000
Bazou,5.062822,10.468748,22000
Djoum,2.672272,12.678067,22000
Meyomessi,2.816982,12.206767,22000
Bourah,10.251725,13.510895,22000
Mintom II,2.695245,13.286959,22000
Ayos,3.903187,12.52445,22000
Mengang,3.891043,12.059813,22000
Doualayel,7.011539,12.660776,22000
Galim-Tignère,7.098118,12.473957,22000
Mutengene,4.09011,9.316958,22000
Obala,4.165713,11.534664,22000
Makenene,4.882633,10.808631,22000
Kentzou,4.17353,15.031607,22000
Nguélébok,4.27165,14.049995,22000
Babadjou,5.678624,10.205076,22000
Magba,5.965742,11.225171,22000
Batcham,5.578226,10.201842,22000
Ngoro,4.959198,11.384583,22000
Foumbot,5.510861,10.638147,22000
Nkolmetet,3.441825,11.765163,22000
Makepe,4.063812,9.740959,22000
Deido,4.063763,9.715183,22000
Moutourwa,10.198151,14.173601,22000
Figuil,9.760531,13.959974,22000
Limani,11.232026,14.170273,22000
Ngoulemakong,3.081121,11.42225,22000
Mengong,2.936744,11.400536,22000
Santa,5.796164,10.162518,22000
Muyuka,4.286208,9.407718,22000
Fongo-Tongo,5.510858,9.984977,22000
Eyumodjock,5.768175,8.983998,22000
Garoua-Boulaï,5.894846,14.547159,22000
Touboro,7.768922,15.347024,22000
Meidougou,6.419322,14.218273,22000
Nkolafamba,3.854491,11.666118,22000
Ndop,5.989248,10.436179,22000
Okola,4.024111,11.381476,22000
Bandenkop,5.254926,10.346209,22000
Mbanga,4.499078,9.565737,22000
Njombé,4.586724,9.652932,22000
Deuk,4.937926,11.260791,22000
Kontcha,7.973652,12.236591,22000
Jakiri,6.084559,10.638271,22000
Touloum,10.182143,14.835593,22000
Hina,10.368786,13.851235,22000
Mindif,10.401439,14.442565,22000
Soa,3.97818,11.593129,22000
Nkor,6.391392,10.584319,22000
Doukoula,10.118529,14.97102,22000
Datchéka,10.012208,15.108255,22000
Akono,3.501534,11.328169,22000
Makak,3.547974,11.027836,22000
Mvengue,3.287925,10.971664,22000
Menguémé,3.243696,11.396217,22000
Esse,4.096618,11.884756,22000
Mayo Darlé,6.50165,11.554673,22000
Manjo,4.847522,9.823031,22000
Dizangué,3.746589,10.01806,22000
Martap,6.891052,13.049675,22000
Santchou,5.281565,9.976098,22000
Mayo-Baléo,7.662773,12.329942,22000
Guidiguis,10.134949,14.707282,22000
Guirvidig,10.888165,14.833524,22000
Maga,10.841601,14.952686,22000
Ngaoundal,6.468342,13.2693,22000
Moulvoudaye,10.408197,14.854632,22000
Baschéo,9.671261,13.373708,22000
Gashiga,9.432272,13.36478,22000
Pétté,10.971987,14.497351,22000
Batchenga,4.286683,11.654341,22000
Melong,5.121582,9.949155,22000
Mindourou I,3.564443,13.404397,22000
Ngomedzap,3.265119,11.200636,22000
Batié,5.31349,10.324157,22000
Penka-Michel,5.468334,10.24131,22000
Makary,12.577143,14.45648,22000
Hilé-Alifa,12.690419,14.320795,22000
Kala Kafra,12.092784,14.840709,22000
Bangam,5.34088,10.258992,22000
Matomb,3.822117,11.060845,22000
Lobo,3.895525,11.229016,22000
Bondjock,3.612447,11.108723,22000
Bikop,3.528746,11.415028,22000
Kékem,5.157671,10.019309,22000
Elig-Mfomo,4.160359,11.351969,22000
Yoko,5.540681,12.318634,22000
Messondo,3.694709,10.451173,22000
Pouma,3.854626,10.525192,22000
Doumé,4.240062,13.452971,22000
Mbang,3.969228,14.268,22000
Bandja,5.264994,10.228846,22000
Bembon,3.414345,14.545893,22000
Mbol II,3.445384,14.626805,22000
Bayangam,5.297665,10.464163,22000
Mayo-Oulo,9.965942,13.616433,22000
Ngog-Mapubi,3.947143,10.837785,22000
Dibang,3.998413,10.718878,22000
Awaé,3.89961,11.883424,22000
Ombessa,4.603044,11.256546,22000
Massangam,5.425851,11.001855,22000
Mboma,4.211235,12.915687,22000
Kétté,4.895989,14.543235,22000
Bangou,5.249738,10.396717,22000
Bandjoun,5.374857,10.412155,22000
Benakuma,6.413533,9.917302,22000
Ngoumou,3.593432,11.304257,22000
Baleng,5.517309,10.410089,22000
Messamena,3.736949,12.829845,22000
Akoéman,3.19166,11.573444,22000
Bankim,6.082783,11.487415,22000
Fundong,6.280281,10.284089,22000
Angossas,4.07632,12.98863,22000
Mbalam,2.223568,13.816016,22000
Tiko,4.075571,9.365019,22000
Sa'a,4.361454,11.4399,22000
Mbangassina,4.555731,11.39202,22000
Ndoukoula,10.274777,14.028057,22000
Massok,4.133005,10.46911,22000
Ngambe,4.229405,10.621202,22000
Nyanon,4.265271,10.953688,22000
Nitoukou,4.639382,10.868692,22000
Bot-Makak,4.011256,10.936749,22000
Logbadjek,3.975018,10.102675,22000
Mouanko,3.640839,9.794041,22000
Yingui,4.528067,10.29402,22000
Bakou,5.076418,10.182266,22000
Oveng,2.421027,12.260139,22000
Olamzé,2.211514,11.090763,22000
Akom II,2.81329,10.544307,22000
Dzeng,3.76166,11.887987,22000
Boumnyébel,3.883887,10.849278,22000
Minta,4.560353,12.8282,22000
Diang,4.580129,13.355282,22000
Nsem,4.892869,12.937806,22000
Doumaintang,4.340381,13.103568,22000
Kobdombo,4.028951,12.730521,22000
Atok,4.007567,12.779177,22000
Ma'an,2.371599,10.629246,22000
Endom,4.09983,12.537392,22000
Ngomedzap,3.332515,11.921307,22000
Bokito,4.573829,11.116437,22000
Demsa,9.546363,13.22596,22000
Touroua,9.08114,12.973747,22000
Barndaké,9.34508,12.973837,22000
Tokombéré,10.86905,14.143651,22000
Meri,10.773131,14.120398,22000
Kai-Kai,10.666759,15.028457,22000
Biwong-Bulu,2.872588,11.075456,22000
Ombe,4.081483,9.290463,22000
Efoulan,2.861168,11.023799,22000
Fifinda I,3.2292,10.026236,22000
Londji,3.083072,9.97372,22000
Meyo Biboulou,2.188644,11.006054,22000
Ngovayang I,3.215325,10.604406,22000
Nyangong,2.967118,10.755483,22000
Ondong Adjap,3.139813,10.849171,22000
Ekité,3.803563,10.08678,22000
Makondo,3.759763,10.26365,22000
Manoka,3.861247,9.623577,22000
Élogbatindi,3.440091,10.127957,22000
Assié,3.344092,11.303295,22000
Emvane,3.696016,12.577614,22000
Mbanga,3.615925,11.750772,22000
Oveng,2.985779,11.677194,22000
Awing,5.840115,10.252833,22000
Bamougoum,5.510266,10.349979,22000
Bangourain,5.90416,10.660262,22000
Essu,6.575384,10.0886,22000
Kouoptamo,5.655727,10.612239,22000
Ngambé Tikar,5.787643,11.494306,22000
Njimom,5.834125,10.958833,22000
Bassamba,5.052988,10.567979,22000
Lolodorf,3.234075,10.727964,22000
Boubara,4.710676,14.595005,22000
Lolo,4.280724,14.903903,22000
Mbilé,4.327224,14.839422,22000
Mindourou II,4.119445,14.57339,22000
Dir,6.311201,14.348684,22000
Djohong,6.836363,14.692131,22000
Gbatoua,6.314958,14.720991,22000
Ndokayo,5.515774,14.123553,22000
Ngoura,4.877725,14.243757,22000
Toktoyo,5.196344,14.661669,22000
Banwa,5.102118,10.071643,22000
Kompina,4.352109,9.582535,22000
Ndobian ( Nord-Makombé),4.990348,10.337769,22000
Baréko (Baré-Bakem),5.019526,9.965224,22000
Ebebda,4.339958,11.283478,22000
Ndikoko,4.694157,10.829516,22000
Bélel,7.05067,14.435865,22000
Mbé,7.858707,13.593762,22000
Nganha,7.435786,13.928681,22000
Bangou Carrefour,5.178609,10.383852,22000
Bibey,4.868784,12.812248,22000
Bélabo,4.920303,13.290971,22000
Somalomo,3.384445,12.736831,22000
Mundemba,4.969004,8.909376,22000
Ndaba,11.240661,13.948285,22000
Soulèdé,10.756041,13.9104,22000
Dargala,10.52814,14.605617,22000
Béka,9.047665,12.901219,22000
Foulou,10.306814,14.281571,22000
Gawel,10.410116,14.099921,22000
Noubou,10.324951,14.119132,22000
Titing,10.175955,14.057965,22000
Biyouha,3.818606,10.741788,22000
Mbaiboum,7.543889,15.449093,22000
Olanguina,3.966373,12.017993,22000
Nguibassal,4.065698,11.056658,22000
Mamfé,5.752772,9.315211,22000
Assighassia,11.135683,13.883007,22000
Djondong,10.102211,15.191546,22000
Dziguilao,10.01067,14.78393,22000
Guémé,10.501264,15.18851,22000
Guere,10.026649,15.255631,22000
Salak,10.451401,14.237963,22000
Taibong,10.009179,14.784077,22000
Tchatibali,10.050101,14.923925,22000
Ngaoui,6.742069,14.953291,22000
Yamba,7.107468,15.205765,22000
Blangoua بلانقوا,12.773992,14.552463,22000
Yarbang,7.012847,14.961675,22000
Ouli,5.200435,14.55163,22000
Dompta,7.25887,15.11162,22000
Gor,8.651417,14.996711,22000
Guidjiba,8.476441,13.733921,22000
Madingrin_1,8.452083,15.004305,22000
Mayo Djarendji,8.375327,14.786351,22000
Mbang,7.165044,14.476134,22000
Rey Bouba,8.671202,14.176807,22000
Roua,10.778733,13.99082,22000
Sorawel,9.784314,13.86403,22000
Ekondo-Titi,4.600943,9.038286,22000
Gbitti,4.700172,14.70745,22000
Mvangan,2.656346,11.740054,22000
Salapoumbé,2.616501,15.380862,22000
Dibombari,4.178504,9.65579,22000
Mombo,4.571741,9.587009,22000
Niété,2.715267,10.057081,22000
Akwaya,6.378907,9.51034,22000
Furu Awa,6.917755,10.190211,22000
Kolofata,11.16183,14.013534,22000
Bikok,3.625193,11.446641,22000
Ekoudendi,3.420352,11.27407,22000
Evindissi,3.437054,11.399789,22000
Nguelemendouka,4.391508,12.923465,22000
Babessi,6.033808,10.579231,22000
Fokoué,5.366363,10.124024,22000
Banka,5.164096,10.197267,22000
Nanga-Eboko,4.666593,12.373081,22000
Nkoteng,4.50469,12.118712,22000
Widekum,5.86348,9.76844,22000
Bétaré-Oya,5.58849,14.086355,22000
Dimako,4.378608,13.577979,22000
Evodoula,4.092796,11.199169,22000
Ngoyla,2.629355,14.024137,22000
Messock,3.08541,14.073204,22000
Ebone,4.879059,9.894176,22000
Edzendouan,4.192888,11.748975,22000
Kon-Yambetta,4.835015,11.056225,22000
Kiiki,4.681901,11.177507,22000
Ndikiniméki,4.758375,10.828457,22000
Galim,5.690986,10.366213,22000
Fontem,5.488524,9.855662,22000
Koutaba,5.651146,10.760917,22000
Hinalé,11.586038,14.993634,22000
Bengbis,3.444016,12.446328,22000
Mbankomo,3.787907,11.402403,22000
Guiwa Yangamo,4.978531,14.042877,22000
Borgop,6.927681,14.818352,22000
Koza,10.868166,13.881488,22000
Mozogo,10.962638,13.904533,22000
Batibo,5.83606,9.887455,22000
Timangolo,4.627231,14.54446,22000
Meyomessala,3.107781,12.244903,22000
Biwong-Bane,3.127292,11.147444,22000
Zoétélé,3.250705,11.886517,22000
Kyé-Ossi,2.185331,11.337341,22000
Otélé,3.591268,11.244386,22000
Colomine,4.999253,14.372226,22000
Tcheboa,9.02822,13.1838,22000
Darak,12.877676,14.296977,22000
Gobo,10.00019,15.418775,22000
Wina,10.09867,15.189736,22000
Kar-Hay,10.11654,14.971217,22000
Gogoleme,11.304859,14.410616,22000
Ngong,9.024352,13.509681,22000
Mada,12.634899,14.470411,22000
Zimado,11.66736,15.073468,22000
Bourgouma,11.897977,15.036836,22000
Oulouf,12.037474,14.919262,22000
Gara,10.249099,13.909582,22000
Kumbo Town,6.203514,10.687516,22000
Afanloum,4.090644,12.036724,22000
Endom,3.504319,12.098973,22000
Souza,4.231763,9.613252,22000
Nkondjock,4.863191,10.241495,22000
Ndom,4.508062,10.83518,22000
Nkong-Zem,5.498214,10.126283,22000
Demdeng (Djebem),5.329209,10.465121,22000
Camp de réfugiés de Minawao,10.553191,13.863287,22000
Nyen,6.014934,9.976298,22000
Nkô,3.773305,12.52759,22000
Toko,5.045162,9.134445,22000
Baham,5.334612,10.368438,19680
Akwomse,6.885708,10.795821,2500
Ndende II,4.370321,14.725875,2500
Ndongo,4.01914,10.839583,2500
Mhomendjok,4.681719,12.689331,2500
Ntouessong IV,3.922084,11.608227,2500
Quartier Latin,4.604357,11.260987,2500
Ouro_bocki,10.4271,13.8782,2500
Ekombe Liongo,4.500305,9.103557,2500
Mounrigachiri,12.480323,14.342725,2500
Kpangalakonga,4.066713,15.085342,2500
Mbaka,3.92294,12.231891,2500
Abang II,3.578141,11.282846,2500
Binyina,3.015306,10.878738,2500
Bikale_gada_mayo,9.53998,13.95577,2500
Mayo Ketchel,9.195347,14.30231,2500
Ekoutou,3.550365,12.510027,2500
Ardo Rumeila,11.984674,14.638743,2500
Oumoua,9.46866,13.67434,2500
Bakakte,4.893918,9.876073,2500
Néméyong II,2.930103,13.503035,2500
Goubeo,10.578905,14.219871,2500
Mimbo,2.994955,11.958666,2500
Niamanga I,4.347453,11.125019,2500
Engom II,2.85817,11.049544,2500
Abouta,2.673452,11.072722,2500
Angalé,2.843767,10.085835,2500
Messam,4.328508,11.417409,2500
Nkhodeuni,11.400998,15.00751,2500
Ngoura,6.74502,14.481354,2500
Mbembesso,4.194423,14.734693,2500
Lamoudan,8.971013,13.529538,2500
Biyan,2.496137,10.794981,2500
Madjer Malia,7.432541,13.738883,2500
Mwamékolo,3.481033,14.866523,2500
Meguege,10.71653,13.87153,2500
Ekali II,3.62988,11.543803,2500
Nkolbéga,4.060166,11.470156,2500
Yanebot II,2.371552,14.105121,2500
Boudfedem,10.67488,14.25784,2500
Sangalé,4.17238,14.817691,2500
Miang II,3.947479,13.258651,2500
Tambadjam,10.4658,14.0234,2500
Nkokbang Matin,4.926691,10.299477,2500
Mukunda,4.046813,9.164351,2500
Kebeng,10.38546,14.0064,2500
Allogène III,4.257335,11.19288,2500
Metyikpwale,2.853456,11.491557,2500
Sa,6.611902,10.769599,2500
Bité,2.516763,13.410634,2500
Bilangue,4.194952,10.984824,2500
Oveng,3.034204,11.723024,2500
Bia,11.1684,14.0914,2500
Bassolo,4.488363,11.22102,2500
Guéfigue,4.563402,11.220602,2500
Tohoti,6.071632,10.588457,2500
Goufan,4.653561,11.25082,2500
Mosongosele Ngolo,4.799909,8.96999,2500
Oyem,3.415469,12.537611,2500
Ngoki,4.191241,9.730956,2500
Nassak,4.390539,11.069353,2500
Boumedje Gra_1,8.95056,13.39989,2500
Korayel,10.170277,13.93222,2500
Mefane,2.903191,10.559048,2500
Zombi Mahaba,6.589996,12.570001,2500
Dota,6.963475,14.946756,2500
Fogom_2,10.74517,14.0028,2500
Kafkaye,10.244566,13.797176,2500
Mokoupok,6.205814,11.391746,2500
Mordok,10.20252,14.07953,2500
Mpong,4.216773,11.193065,2500
Katola Haoussa,12.797384,14.54414,2500
Ekonong,3.224861,11.607293,2500
Missilia,10.18836,14.14235,2500
Maelho,4.568985,11.409326,2500
Ndziefidi,3.222398,11.535673,2500
Manta,6.139516,10.112325,2500
Maakouop,5.557593,10.64597,2500
Boumba,8.48013,13.36983,2500
Sadong,9.96211,14.66992,2500
Nkolngok,3.417529,11.297285,2500
Ebengon,2.21798,11.186811,2500
Adjou'ou,2.271335,11.368739,2500
Nkolebityé,2.873249,11.3837,2500
Makwopchichi,5.004267,10.907506,2500
Djala,11.158001,14.322933,2500
Louggol,10.494015,14.255361,2500
Kabela,11.956139,15.042075,2500
Bounbou,8.96764,14.22731,2500
Megom,5.442822,10.41436,2500
Mbissa,6.628941,10.553027,2500
Kishi,6.219416,10.717409,2500
Nkoum,4.164265,13.293463,2500
Bangué,4.108029,14.52213,2500
Bitso'omam,3.124918,13.614836,2500
Song-Adjanga,4.419603,11.324034,2500
Nkolébé,4.272455,11.266926,2500
Tombi,3.703784,15.133766,2500
Foufeke,7.502127,13.359031,2500
Koptchou II,5.516704,10.507662,2500
Bardouki,10.19984,14.89414,2500
Mouskaté,11.84929,14.982541,2500
Gaban,10.2333,14.55,2500
Soulkandou,9.733006,13.850573,2500
Bindjen II,4.748571,10.287072,2500
Oloumsang,4.260275,11.320695,2500
Loumdi,2.889231,9.966584,2500
Chefferie de Ouro Kessoum,9.388975,13.501493,2500
Badia,10.10225,14.07076,2500
Ntale,5.250331,9.572264,2500
Nkolngok,3.767612,11.559693,2500
Wala,4.578003,12.315432,2500
Ouro Hairou,8.55042,13.47884,2500
Fan Bikang I,4.074017,12.77537,2500
Mafa_bacheo,9.667309,13.379507,2500
Lebongla,4.045439,10.948538,2500
Bessoungkang,4.265986,9.742008,2500
Manhounouga,9.94878,14.84546,2500
Borongwé 2,4.337468,14.563655,2500
Yemassi,3.973888,11.281844,2500
Blandjok,3.788667,12.836127,2500
Ndokmbalé,4.730199,10.538509,2500
Houla_fandou,9.55388,14.0198,2500
Kouki,6.160671,10.911939,2500
Gouna,9.98739,14.98075,2500
Kaftaka,10.38257,13.80496,2500
Dabam,10.873508,14.4658,2500
Kocciel,9.355717,12.923775,2500
Ntibonke,3.510776,13.036598,2500
Ekomé,4.32172,11.342733,2500
Mélen,3.529757,11.388391,2500
Bagwale,4.069936,13.122472,2500
Metchet,10.37446,14.343207,2500
Sodalou,9.58904,13.80062,2500
Balatchouet,5.561681,10.381768,2500
Bikpwaé,2.674726,11.286442,2500
Paka,4.148556,15.026618,2500
Ndze,6.10829,10.709706,2500
Nkolékotsing,4.064651,11.17958,2500
Ndikminokon 1,4.356724,10.425114,2500
Nkoufen,5.351659,10.630847,2500
Kondébisse,3.239485,11.711477,2500
Nkolessong,3.963936,11.481642,2500
Mimbanga,4.837364,12.754226,2500
Loo Biyeng,2.959609,11.123263,2500
Abiete Yendjock,2.735459,11.503201,2500
Ebolakounou,3.936575,12.435141,2500
Patadje,9.256558,13.962608,2500
Nkolondom,3.98254,11.480753,2500
Matanda Massadi,3.941687,9.646026,2500
Léta,4.250979,14.004052,2500
Betenge,4.833074,9.229634,2500
Ngombas I,3.582647,11.159261,2500
Assok,3.683416,11.829357,2500
Okoyong,5.725496,9.35065,2500
Beguele,10.599092,14.177612,2500
Nsaké Ndoundak,4.374115,10.011401,2500
Ababendoman,2.497113,11.545978,2500
Mbe,5.826965,11.373786,2500
Makoupa,6.08452,11.192833,2500
Mimbang,4.61059,13.120239,2500
Munken,6.595237,10.224082,2500
Mbiami,6.189301,10.873163,2500
Bwanenbwa,4.796577,9.860059,2500
Ba,5.063507,11.095825,2500
Pri,10.07375,13.734972,2500
Nyakengeng,5.057521,11.383123,2500
Nengoang,4.630561,11.288795,2500
Lamendoum,3.413125,14.511585,2500
Nkoloveng,3.507318,11.668411,2500
Akina,2.51657,11.072834,2500
Miangwe II,5.06649,9.003972,2500
Bangli,9.24737,13.20375,2500
Balaza_lawane,10.68841,14.44658,2500
Lagdo 2,9.05924,13.65549,2500
Talangaye,5.629372,9.311844,2500
Ndoumba II,4.908914,13.25235,2500
Ngat,3.091716,12.246347,2500
Mbouldi,6.876321,14.76286,2500
Bongol,4.741102,11.060102,2500
Konpatwa,4.322115,13.507741,2500
Essazok II,3.687185,11.515667,2500
Mayo Sahel Ouro,9.520793,13.277774,2500
ouro-mo-ou,9.674382,13.366194,2500
Ngouong,4.271725,12.819754,2500
ngaoui,6.975548,11.995275,2500
Djagba,8.376444,13.706667,2500
Djiongwo,5.291649,10.506109,2500
Mekok,2.510245,10.851963,2500
Maloua,5.243513,10.833474,2500
Ouro Ardo,9.257746,13.275296,2500
Liyinn,4.893863,11.081409,2500
Malambali,8.05653,15.13673,2500
Elah,4.180581,11.203652,2500
Mongobia,4.070191,14.486655,2500
Village 8,3.150647,12.366741,2500
Ngoulmekong,4.480337,12.033792,2500
Ouro_malloum_2,8.964538,13.453224,2500
Ndoumdoum,2.609444,13.286257,2500
Kouajem,4.987113,10.678619,2500
Engongom,3.097952,11.125363,2500
Dafa,9.97571,13.76652,2500
Naga Kabir,12.506743,14.554358,2500
Nnon,4.316567,10.849947,2500
Village 2,3.189011,12.405787,2500
Magawai,10.58865,13.85205,2500
Mapa,3.799418,9.714332,2500
Boura I,4.675897,11.332887,2500
Etoa,3.77452,11.481377,2500
Makak,3.841269,13.044057,2500
Oveng,3.091217,11.306731,2500
Koukoum,4.353373,10.827829,2500
Aboumezok,2.350506,11.790145,2500
Awaé,3.587652,11.610551,2500
Mbe,4.867356,11.156444,2500
Bombato,4.46004,11.2458,2500
Lélem-Moatong,5.193473,9.990255,2500
Biliel,8.04142,13.18343,2500
Mbese,5.45414,13.713529,2500
Nyomo,3.744316,11.490449,2500
Biyan,3.692969,11.405553,2500
Tambadjam,8.49282,13.4608,2500
Minko,2.339061,10.384852,2500
Talandi,10.282359,13.967056,2500
Mendoungue,3.477598,15.048223,2500
Tapata,5.103661,14.528282,2500
Tchangou,9.622679,13.810726,2500
Mfelap,5.822752,10.899552,2500
Nyim,3.277491,11.318954,2500
Nkang,4.856283,11.217209,2500
Mimbomingal,3.04018,10.905347,2500
Ngousséré,12.520834,14.486979,2500
Boundé,4.215161,14.938567,2500
Danigue,10.14987,15.37234,2500
Mengbwa,3.186555,11.806142,2500
Gbagbale,4.397633,14.645558,2500
Niewa I,4.329038,14.81884,2500
Mayo_lade_2,7.901305,15.230194,2500
Kongong,10.601853,14.069581,2500
Akoumou,3.707118,12.860533,2500
Yanga,4.546193,11.295487,2500
Moneko I,3.036968,11.741555,2500
Bima,9.61329,13.84578,2500
Biatsota II,4.413172,11.638996,2500
MBAMOKOUTE,4.780114,11.025257,2500
Yabona,4.188076,9.702951,2500
Mbomo,3.927961,9.323021,2500
Toumbi,5.327467,12.441716,2500
Mba,3.815061,12.816625,2500
Doumgel,9.48741,13.80653,2500
Dembo,9.711615,13.550302,2284
Njinibi,6.014101,9.980507,1000
Nkol-Meding,3.58611,11.29167,305
